{
    "cafes": [
    {
        "name": "Aku Cafe & Gallery",
        "key": "AkuCafeandGallery",
        "address": "No.8, 1st Floor, Jalan Panggong",
        "phoneNumber": "03 28576887",
        "site": "https://www.facebook.com/akucafegallery",
        "espresso": "",
        "handbrew": "Y",
        "pastryOnly": "Y",
        "lunch": "Y",
        "dinner": "",
        "logo": "Aku-Cafe-Logo.png",
        "hours": "11am-7pm, Mon off"
    },
    {
        "name": "Await Cafe",
        "key": "AwaitCafeKualaLumpur",
        "address": "9-1-5, Jalan 3/109F, Taman Danau Desa",
        "phoneNumber": "03 79710978",
        "site": "http://www.facebook.com/awaitCafe",
        "espresso": "",
        "handbrew": "Y",
        "pastryOnly": "Y",
        "lunch": "Y",
        "dinner": "",
        "logo": "awaitcafe_logo.png",
        "hours": "Weekdays: 11am-8pm, Thursday off. Weekends: 9am-8pm"
    },
    {
        "name": "Brew&Bread",
        "key": "BrewBread",
        "address": "10, Jalan Anggerik Vanilla M 31/M",
        "phoneNumber": "03-5131 5201",
        "site": "https://www.facebook.com/Brew.n.Bread",
        "espresso": "Y",
        "handbrew": "",
        "pastryOnly": "Y",
        "lunch": "Y",
        "dinner": "",
        "logo": "BrewBread.png",
        "hours": "8am-7pm, Thurs off"
    },
    {
        "name": "Bricks Coffee",
        "key": "BricksCoffee",
        "address": "G8, The Place, Jalan PJU 8/5D, Damansara Perdana",
        "phoneNumber": "03-77259885",
        "site": "https://www.facebook.com/BricksCoffee",
        "espresso": "Y",
        "handbrew": "",
        "pastryOnly": "Y",
        "lunch": "Y",
        "dinner": "",
        "logo": "BricksLogo.png",
        "hours": "10am-8pm, Sun off"
    },
    {
        "name": "Butter+Beans at Seventeen",
        "key": "ButterBeansatSeventeen",
        "address": "BG- 1a, Happy Mansion, Jalan 17/13",
        "phoneNumber": "03-7932 2556",
        "site": "http://facebook.com/ButterBeansAtSeventeen",
        "espresso": "Y",
        "handbrew": "",
        "pastryOnly": "Y",
        "lunch": "",
        "dinner": "",
        "logo": "ButterBeans-Logo.png",
        "hours": "830am-830pm"
    },
    {
        "name": "Cafe Departure Lounge (Damasara Utama))",
        "key": "DepartureLoungeDamansaraUptown",
        "address": "10, Jln SS 21/39, Damansara Utama",
        "phoneNumber": "Damansara Uptown - 03 77257682",
        "site": "https://www.facebook.com/CafeDepartureLounge",
        "espresso": "Y",
        "handbrew": "",
        "pastryOnly": "Y",
        "lunch": "Y",
        "dinner": "",
        "logo": "Departure-Lounge-highres.png",
        "hours": "7am to 7pm"
    },
    {
        "name": "Cafe Departure Lounge (Solaris Mt Kiara)",
        "key": "DepartureLoungeMontKiara",
        "address": "10, Jalan Solaris 4, Solaris Mont' Kiara ",
        "phoneNumber": "03-62030362",
        "site": "https://www.facebook.com/CafeDepartureLounge",
        "espresso": "Y",
        "handbrew": "",
        "pastryOnly": "Y",
        "lunch": "Y",
        "dinner": "",
        "logo": "Departure-Lounge-highres.png",
        "hours": "8am - 7pm"
    },
    {
        "name": "CAFFEine",
        "key": "CAFFEine",
        "address": "G-09-1, Level 1, Block G, SetiaWalk",
        "phoneNumber": "03-58790033",
        "site": "http://www.facebook.com/caffeine.my",
        "espresso": "Y",
        "handbrew": "Y",
        "pastryOnly": "Y",
        "lunch": "Y",
        "dinner": "Y",
        "logo": "Caffeine.png",
        "hours": "Mon: 2pm-11pm Wed-Fri: 2pm-11pm Sat-Sun: Noon-11pm, Tues off"
    },
    {
        "name": "Coffee Famille",
        "key": "CoffeeFamille",
        "address": "6-G, Garden Wing, Sunsuria Avenue",
        "phoneNumber": "03 61505126",
        "site": "https://www.facebook.com/coffee.famille.sb",
        "espresso": "Y",
        "handbrew": "Y",
        "pastryOnly": "Y",
        "lunch": "Y",
        "dinner": "",
        "logo": "Coffee-Familie-LOgo.png",
        "hours": "11am-8pm, Mon off"
    },
    {
        "name": "CoffeeSociété",
        "key": "CoffeeSocit",
        "address": "Publika, Block D4, Level G3",
        "phoneNumber": "03-62115523",
        "site": "http://facebook.com/coffeesociete",
        "espresso": "Y",
        "handbrew": "",
        "pastryOnly": "Y",
        "lunch": "Y",
        "dinner": "Y",
        "logo": "CoffeeSociete.png",
        "hours": "1030am to 12am"
    },
    {
        "name": "DotZ Cafe",
        "key": "DotzCafe",
        "address": "No3-1, Jalan Anggerik Vanilla 31/93",
        "phoneNumber": "N/A",
        "site": "http://fb.dotzcafe.com",
        "espresso": "Y",
        "handbrew": "Y",
        "pastryOnly": "Y",
        "lunch": "Y",
        "dinner": "",
        "logo": "Dotz_logo.png",
        "hours": "8am - 7pm, Tues off"
    },
    {
        "name": "Epiphany Coffee & Tobacco",
        "key": "EpiphanyCoffeeandTobacco",
        "address": "D-G-06, Block D, Oasis Square Ara Damansara",
        "phoneNumber": "03-7859 9998",
        "site": "https://www.facebook.com/EpiphanyCoffeeTobacco",
        "espresso": "Y",
        "handbrew": "",
        "pastryOnly": "Y",
        "lunch": "Y",
        "dinner": "",
        "logo": "Epiphany-Logo--new-lightbulb-2.png",
        "hours": "10am to 1130pm"
    },
    {
        "name": "Exhibit Cafe TTDI",
        "key": "ExhibitCafeTTDI",
        "address": "86A, Jalan Burhanuddin Helmi,",
        "phoneNumber": "03-77313311",
        "site": "http://www.facebook.com/exhibitcafe.ttdi",
        "espresso": "Y",
        "handbrew": "Y",
        "pastryOnly": "Y",
        "lunch": "Y",
        "dinner": "",
        "logo": "Exhibit-Cafe_High-Res-Logo.png",
        "hours": "11am - 9pm, Wed off"
    },
    {
        "name": "Food Foundry",
        "key": "FoodFoundry",
        "address": "BG-8, Happy Mansion, Jalan 17/13, Petaling Jaya, Malaysia",
        "phoneNumber": "60379553885",
        "site": "http://facebook.com/FoodFoundry",
        "espresso": "Y",
        "handbrew": "",
        "pastryOnly": "Y",
        "lunch": "Y",
        "dinner": "Y",
        "logo": "Food-Foundry-Logo.png",
        "hours": "11am-10pm"
    },
    {
        "name": "Grandeur Gallery Cafe",
        "key": "GrandeurGalleryCafe",
        "address": "22-2, Jalan Anggerik Vanilla BE 31/BE, Kota Kemuning",
        "phoneNumber": "03 55255568",
        "site": "http://www.facebook.com/ggc.kk",
        "espresso": "Y",
        "handbrew": "",
        "pastryOnly": "Y",
        "lunch": "Y",
        "dinner": "",
        "logo": "GrandeurLogoFinal2.png",
        "hours": "Tue-Fri: 1130am-630pm Sat-Sun: 930am to 630pm, Mon off"
    },
    {
        "name": "Haikara-Style Cafe & Bakery",
        "key": "HaikaraStyleCafeBakery",
        "address": "E-TIARA GF SS16/1",
        "phoneNumber": "03-5630 0743",
        "site": "https://www.facebook.com/Haikara.Style",
        "espresso": "",
        "handbrew": "Y",
        "pastryOnly": "Y",
        "lunch": "Y",
        "dinner": "Y",
        "logo": "haikara-style-cafe.png",
        "hours": "Tues-Thurs: 11am-11pm, Fri-Sat: 10am-11pm, Sun: 10am-6.30pm Mon off"
    },
    {
        "name": "HotShots Coffee & Tea",
        "key": "HotShotsCoffeeTea",
        "address": "A2-UG1-07 Solaris Dutamas",
        "phoneNumber": "03 62079908",
        "site": "http://www.facebook.com/hotshots1300888138",
        "espresso": "Y",
        "handbrew": "",
        "pastryOnly": "Y",
        "lunch": "Y",
        "dinner": "",
        "logo": "HostShots-Logo.png",
        "hours": "11am -7pm, Weekends off"
    },
    {
        "name": "LOKL",
        "key": "LOKL",
        "address": "30 Jalan Tun H.S. Lee",
        "phoneNumber": "20721188",
        "site": "https://www.facebook.com/LoklCoffee",
        "espresso": "Y",
        "handbrew": "",
        "pastryOnly": "Y",
        "lunch": "Y",
        "dinner": "",
        "logo": "LOKLFA_logo_rooster.png",
        "hours": "Mon-Thurs: 9am-7pm Fri-Sat: 9am-9pm, Sun off"
    },
    {
        "name": "Miss Ellie Tea House",
        "key": "MissEllieTeaHouse",
        "address": "7 Jalan H3, Taman Melawati",
        "phoneNumber": "03-41620113",
        "site": "http://www.facebook.com/missellieteahouse",
        "espresso": "",
        "handbrew": "Y",
        "pastryOnly": "Y",
        "lunch": "Y",
        "dinner": "",
        "logo": "missellieteahouse.png",
        "hours": "10am-7pm, Mon off"
    },
    {
        "name": "Moontree House",
        "key": "MoontreeHouse",
        "address": "No. 6, 1st Floor, Jalan Panggong",
        "phoneNumber": "03 20310537",
        "site": "http://www.facebook.com/MoontreeHouse",
        "espresso": "",
        "handbrew": "Y",
        "pastryOnly": "Y",
        "lunch": "Y",
        "dinner": "",
        "logo": "moontree_v2.png",
        "hours": "10am-8pm, Tues off"
    },
    {
        "name": "MyEspresso Cafe",
        "key": "MyEspressoCafe",
        "address": "63A, Jalan USJ 21/11",
        "phoneNumber": "03-80812092",
        "site": "http://www.facebook.com/myespressocafe",
        "espresso": "Y",
        "handbrew": "Y",
        "pastryOnly": "Y",
        "lunch": "",
        "dinner": "",
        "logo": "My-espresso.png",
        "hours": "11am to 7pm, Sun: 2-7pm, Mon off"
    },
    {
        "name": "Plan b. Roasters",
        "key": "PlanBRoasters",
        "address": "Lot 1A, 83-95 Level UG1,",
        "phoneNumber": "03-6209 1724",
        "site": "https://www.facebook.com/Plan.B.Roasters",
        "espresso": "Y",
        "handbrew": "Y",
        "pastryOnly": "Y",
        "lunch": "Y",
        "dinner": "",
        "logo": "planbroasters.png",
        "hours": "9am-8pm"
    },
    {
        "name": "RAWcoffee Cafe",
        "key": "RAWCoffee",
        "address": "150 Jalan Ampang",
        "phoneNumber": "019 3138978",
        "site": "http://www.facebook.com/realandwholesome",
        "espresso": "Y",
        "handbrew": "Y",
        "pastryOnly": "Y",
        "lunch": "Y",
        "dinner": "",
        "logo": "RAW-Coffee-Logo.png",
        "hours": "Mon-Fri: 730am-730pm Sat: 9am-6pm, Sun off"
    },
    {
        "name": "Royal Post",
        "key": "RoyalPostCafe",
        "address": "G02 Ground Floor Block C, Damansara Intan",
        "phoneNumber": "03-77339868",
        "site": "http://www.facebook.com/royalpostcafe",
        "espresso": "Y",
        "handbrew": "",
        "pastryOnly": "Y",
        "lunch": "Y",
        "dinner": "",
        "logo": "RoyalPost-Logo.png",
        "hours": "7am-7pm, Weekends off"
    },
    {
        "name": "The Brew Culture",
        "key": "TheBrewCulture",
        "address": "B-01-06 Plaza Damas 3",
        "phoneNumber": "",
        "site": "http://www.facebook.com/The.Brew.Culture",
        "espresso": "Y",
        "handbrew": "Y",
        "pastryOnly": "Y",
        "lunch": "Y",
        "dinner": "",
        "logo": "TBC-logo.png",
        "hours": "9am-7pm, Fri off"
    },
    {
        "name": "The Red Beanbag",
        "key": "TheRedBeanbag",
        "address": "A4-1-08, Solaris Dutamas",
        "phoneNumber": "03 62115116",
        "site": "http://www.facebook.com/theredbeanbag",
        "espresso": "Y",
        "handbrew": "Y",
        "pastryOnly": "Y",
        "lunch": "Y",
        "dinner": "",
        "logo": "RBB-thick.png",
        "hours": "Tues-Fri 10am-10pm, Weekends 930am-10pm, Mon off"
    },
    {
        "name": "WHISK, Espresso Bar & Bake Shop (Empire)",
        "key": "WhiskEspressoBarBakeShop",
        "address": "LG03A Empire Shopping Gallery,",
        "phoneNumber": "03 50222060",
        "site": "http://www.facebook.com/whisk.kl",
        "espresso": "Y",
        "handbrew": "Y",
        "pastryOnly": "Y",
        "lunch": "Y",
        "dinner": "",
        "logo": "Whisk-Espresso-Bar.png",
        "hours": "10am - 10pm"
    },
    {
        "name": "WHISK, Outpost",
        "key": "WhiskOutpost",
        "address": "G139,1 Utama Shopping Centre",
        "phoneNumber": "03 77221020",
        "site": "http://www.facebook.com/whisk.kl",
        "espresso": "Y",
        "handbrew": "Y",
        "pastryOnly": "Y",
        "lunch": "Y",
        "dinner": "",
        "logo": "Whisk-Espresso-Bar.png",
        "hours": "10am - 10pm (1030pm Fri & Sat)"
    }
]
}